City_ID,City,Lat,Lng,Max Temp,Humidity,Cloudiness,Wind Speed,Country,Date
0,ilulissat,69.2167,-51.1,-0.99,55,100,6.69,GL,1728833084
1,grytviken,-54.2811,-36.5092,0.04,74,25,4.88,GS,1728833363
2,al bawiti,28.3492,28.8659,33.74,20,0,4.4,EG,1728833364
3,ushuaia,-54.8,-68.3,10.81,54,0,5.14,AR,1728833124
4,tshabong,-26.05,22.45,37.49,6,6,1.26,BW,1728833367
5,avarua,-21.2078,-159.775,22.03,88,75,5.14,CK,1728833368
6,iqaluit,63.7506,-68.5145,0.85,80,75,6.17,CA,1728833369
7,puerto natales,-51.7236,-72.4875,13.25,47,40,14.4,CL,1728833371
8,adamstown,-25.066,-130.1015,21.06,82,100,6.01,PN,1728833372
9,port mathurin,-19.6833,63.4167,22.5,74,8,10.04,MU,1728833374
10,papatowai,-46.5619,169.4708,2.22,86,3,2.86,NZ,1728833375
11,ribeira grande,38.5167,-28.7,22.22,94,75,7.2,PT,1728833376
12,bethel,41.3712,-73.414,16.12,63,40,3.6,US,1728833377
13,ancud,-41.8697,-73.8203,11.4,81,46,1.9,CL,1728833379
14,wailua homesteads,22.0669,-159.378,22.24,95,79,3.77,US,1728833380
15,uturoa,-16.7333,-151.4333,24.93,74,32,7.15,PF,1728833381
16,port-aux-francais,-49.35,70.2167,4.85,93,100,12.93,TF,1728833383
17,ahoada,5.074,6.6535,26.14,96,100,1.04,NG,1728833384
18,blackmans bay,-43.0167,147.3167,8.07,88,100,0.45,AU,1728833386
19,kavaratti,10.5669,72.642,26.54,87,100,2.37,IN,1728833387
20,howard springs,-12.497,131.047,27.95,76,29,3.45,AU,1728833388
21,alofi,-19.0595,-169.9187,20.94,94,99,1.54,NU,1728833389
22,waitangi,-43.9535,-176.5597,9.34,74,100,1.34,NZ,1728833391
23,turkmenbasy,40.0222,52.9552,19.43,45,75,4.12,TM,1728833392
24,vorgashor,67.5833,63.95,0.77,91,100,6.94,RU,1728833393
25,mendota,36.7536,-120.3816,16.15,90,0,2.66,US,1728833395
26,west island,-12.1568,96.8225,26.99,89,20,6.69,CC,1728833396
27,valparaiso,-33.0393,-71.6273,19.13,65,0,5.66,CL,1728833398
28,namibe,-15.1961,12.1522,22.53,78,11,5.35,AO,1728833399
29,sheridan,44.8333,-106.9173,11.84,29,4,3.22,US,1728833400
30,nantucket,41.2835,-70.0995,13.06,62,100,6.15,US,1728833402
31,albany,42.6001,-73.9662,7.64,82,100,0.92,US,1728833403
32,bilibino,68.0546,166.4372,-11.45,86,100,1.28,RU,1728833404
33,torres,-29.3353,-49.7269,23.79,67,27,6.59,BR,1728833406
34,yellowknife,62.456,-114.3525,7.45,83,75,11.32,CA,1728833407
35,invercargill,-46.4,168.35,1.12,92,16,1.46,NZ,1728833408
36,wagar,16.1525,36.2032,35.67,20,0,3.39,SD,1728833410
37,port elizabeth,-33.918,25.5701,21.17,89,75,3.6,ZA,1728833411
38,villa regina,-39.1,-67.0667,23.47,16,0,4.94,AR,1728833412
39,lagunillas,10.1301,-71.2595,30.84,70,100,3.98,VE,1728833414
40,beykonak,36.3257,30.303,23.77,83,8,1.5,TR,1728833416
41,longyearbyen,78.2186,15.6401,2.91,75,75,10.29,SJ,1728833418
42,udachny,66.4167,112.4,-21.52,100,57,2.35,RU,1728833419
43,wau,7.7029,27.9953,26.17,69,42,2.45,SS,1728833420
44,hirara,24.8,125.2833,26.15,89,75,3.09,JP,1728833422
45,kununurra,-15.7667,128.7333,27.99,74,75,3.09,AU,1728833423
46,prince rupert,54.3161,-130.3201,9.83,94,100,4.12,CA,1728833424
47,santa rosa misiones,-26.8667,-56.85,31.85,33,0,2.52,PY,1728833426
48,mukalla,14.5425,49.1242,28.34,62,53,1.12,YE,1728833015
49,stanley,54.868,-1.6985,7.93,65,0,1.03,GB,1728833428
50,margate,51.3813,1.3862,11.06,66,100,0.51,GB,1728833430
51,sisimiut,66.9395,-53.6735,2.05,68,17,3.98,GL,1728833047
52,along,28.1667,94.7667,16.63,96,100,0.38,IN,1728833432
53,talnakh,69.4865,88.3972,-4.91,96,100,5.24,RU,1728833433
54,zhangye,38.9342,100.4517,15.61,26,28,2.74,CN,1728833098
55,piti village,13.4626,144.6933,27.49,85,0,3.09,GU,1728833436
56,isafjordur,66.0755,-23.124,2.02,55,0,1.54,IS,1728833437
57,usinsk,65.9939,57.5281,0.67,99,100,5.63,RU,1728833439
58,lebu,-37.6167,-73.65,13.68,61,4,4.76,CL,1728833440
59,guerrero negro,27.9769,-114.0611,22.91,65,0,2.76,MX,1728833441
60,thompson,55.7435,-97.8558,-0.91,86,75,1.03,CA,1728833443
61,keflavik,64.0049,-22.5624,3.95,52,0,4.63,IS,1728833169
62,whitehorse,60.7161,-135.0538,3.23,85,40,5.14,CA,1728833445
63,nuku'alofa,-21.1333,-175.2,22.19,100,75,1.54,TO,1728833447
64,ciechanow,52.8814,20.62,8.92,70,78,7.13,PL,1728833448
65,igarka,67.4667,86.5833,0.22,98,100,6.26,RU,1728833449
66,constantia,44.1833,28.65,16.5,61,93,2.46,RO,1728833451
67,hebi,35.8992,114.1925,17.86,75,22,1.87,CN,1728833452
68,kodiak,57.79,-152.4072,7.73,87,100,7.72,US,1728833455
69,port augusta,-32.5,137.7667,17.74,75,100,1.15,AU,1728833456
70,vila velha,-20.3297,-40.2925,26.97,72,75,8.23,BR,1728833457
71,devonport,-41.1667,146.35,9.18,96,100,0.67,AU,1728833459
72,stony plain,53.5334,-114.0021,5.84,65,0,6.69,CA,1728833460
73,tura,25.5198,90.2201,21.91,89,0,1.68,IN,1728833461
74,broome,42.2506,-75.833,8.43,87,100,4.12,US,1728833463
75,gunjur,13.2019,-16.7339,29.04,84,75,2.06,GM,1728833464
76,bamboo flat,11.7,92.7167,27.05,89,40,1.03,IN,1728833467
77,bayganin,48.6947,55.8742,1.73,34,0,4.17,KZ,1728833468
78,berezovyy,51.6667,135.7,3.22,56,100,2.01,RU,1728833070
79,midland,31.9974,-102.0779,25.91,22,0,4.12,US,1728833471
80,touros,-5.1989,-35.4608,29.93,54,20,6.5,BR,1728833472
81,quellon,-43.1167,-73.6167,10.69,87,99,1.35,CL,1728833066
82,nova vicosa,-17.8919,-39.3719,28.0,69,49,4.58,BR,1728833475
83,weno,7.4515,151.8468,29.03,75,99,4.81,FM,1728833476
84,taroa,8.7058,171.2275,28.14,77,29,5.39,MH,1728833477
85,williston,48.147,-103.618,4.34,80,93,2.2,US,1728833479
86,high river,50.5834,-113.8687,3.22,50,8,2.3,CA,1728833480
87,ust-nera,64.5667,143.2,-4.34,94,99,2.59,RU,1728833481
88,petropavlovsk-kamchatsky,53.0452,158.6483,4.33,93,75,4.0,RU,1728833483
89,vilyuchinsk,52.9306,158.4028,5.15,96,100,3.29,RU,1728833484
90,punta arenas,-53.15,-70.9167,11.06,62,40,14.92,CL,1728833423
91,aasiaat,68.7098,-52.8699,-0.72,68,2,1.2,GL,1728833488
92,edinburgh of the seven seas,-37.0676,-12.3116,13.75,77,92,9.41,SH,1728833489
93,aswan,24.0934,32.907,34.49,14,0,4.71,EG,1728833492
94,haapavesi,64.1333,25.3667,4.73,95,100,1.79,FI,1728833493
95,muang xay,20.7,101.9833,22.12,88,69,0.64,LA,1728833495
96,i-n-salah,27.1935,2.4607,38.99,10,0,0.26,DZ,1728833496
97,st. john's,47.5649,-52.7093,12.86,74,75,8.75,CA,1728833497
98,enewetak,11.3474,162.3373,27.08,79,100,1.05,MH,1728833499
99,mancora,-4.1078,-81.0475,25.43,65,42,4.13,PE,1728833500
100,vila franca do campo,37.7167,-25.4333,23.23,92,100,2.27,PT,1728833501
101,sitka,57.0531,-135.33,9.94,71,100,6.17,US,1728833503
102,badger,64.8,-147.5333,1.14,90,75,2.57,US,1728833504
103,villa maria,-32.4075,-63.2402,20.68,68,100,5.53,AR,1728833505
104,margaret river,-33.95,115.0667,14.26,85,0,2.73,AU,1728833506
105,sa'dah,16.9402,43.7639,22.94,24,28,4.88,YE,1728833508
106,hermanus,-34.4187,19.2345,15.45,87,58,4.43,ZA,1728833509
107,hawaiian paradise park,19.5933,-154.9731,20.73,78,100,2.57,US,1728833511
108,portland,45.5234,-122.6762,13.65,90,20,1.34,US,1728833512
109,changling,44.2653,124.0005,16.0,58,100,7.78,CN,1728833513
110,bonab,37.3404,46.0561,20.25,32,20,1.03,IR,1728833339
111,mossel bay,-34.1831,22.146,16.96,80,20,4.28,ZA,1728833516
112,colby,39.3958,-101.0524,13.03,44,0,8.23,US,1728833517
113,bodaybo,57.8506,114.1933,-4.84,76,100,2.88,RU,1728833016
114,villa huidobro,-34.8383,-64.5869,16.16,92,100,4.86,AR,1728833521
115,tamanrasset,22.785,5.5228,32.95,11,0,6.17,DZ,1728833523
116,puerto ayora,-0.7393,-90.3518,22.98,89,98,2.24,EC,1728833524
117,iskateley,67.6803,53.1512,1.9,92,14,5.95,RU,1728833525
118,nha trang,12.25,109.1833,28.0,92,98,2.02,VN,1728833527
119,pingliang,35.5392,106.6861,13.81,80,0,1.6,CN,1728833231
120,college,64.8569,-147.8028,1.18,91,100,2.57,US,1728833529
121,dryden,49.7833,-92.7503,4.16,93,100,3.09,CA,1728833531
122,ulsteinvik,62.3432,5.8487,8.2,89,100,2.24,NO,1728833532
123,dien bien phu,21.3833,103.0167,21.37,99,39,1.1,VN,1728833533
124,lompoc,34.6391,-120.4579,15.38,90,100,1.79,US,1728833535
125,slupca,52.2873,17.8719,7.23,70,87,9.46,PL,1728833536
126,ravar,31.2656,56.8055,24.89,14,11,2.57,IR,1728833538
127,kaga bandoro,6.9896,19.1874,26.84,80,94,1.21,CF,1728833539
128,topraisar,44.0167,28.45,16.2,63,70,2.3,RO,1728833540
129,bubaque,11.2833,-15.8333,28.12,74,100,3.9,GW,1728833542
130,khandyga,62.6667,135.6,-8.37,96,91,0.8,RU,1728833543
131,gaspe,48.8334,-64.4819,11.95,62,75,6.17,CA,1728833544
132,tofol,5.3248,163.0078,29.28,69,66,6.4,FM,1728833546
133,dudinka,69.4058,86.1778,0.02,99,100,5.72,RU,1728833547
134,arteche,12.2645,125.4048,26.17,87,56,0.8,PH,1728833548
135,kristiansund,63.1115,7.732,9.36,89,75,1.54,NO,1728833550
136,ta`u,-14.2336,-169.5144,26.33,78,97,7.58,AS,1728833551
137,georgetown,5.4112,100.3354,27.96,88,40,4.12,MY,1728833553
138,kapuskasing,49.4169,-82.4331,4.0,70,20,4.12,CA,1728833554
139,yangjiang,21.85,111.9667,23.55,85,0,2.06,CN,1728833557
140,miasskoye,55.2784,61.8905,-2.3,90,45,1.3,RU,1728833558
141,hadibu,12.65,54.0333,27.61,64,93,0.5,YE,1728833559
142,prince albert,53.2001,-105.7677,-2.03,100,75,0.0,CA,1728833560
143,pont rouge,48.8833,-72.0825,6.06,66,100,3.9,CA,1728833562
144,cromwell,41.5951,-72.6454,14.09,66,20,2.06,US,1728833563
145,erdenet,49.0333,104.0833,-6.69,94,98,2.82,MN,1728833492
146,kralendijk,12.15,-68.2667,32.99,62,75,9.26,BQ,1728833351
147,ghanzi,-21.5667,21.7833,31.22,12,98,2.88,BW,1728833567
148,patacamaya,-17.2333,-67.9167,14.64,33,80,5.78,BO,1728833568
149,taro,-8.3862,115.28,24.0,96,50,0.27,ID,1728833043
150,lata,40.1629,-8.3327,26.38,48,49,3.9,PT,1728833571
151,baardheere,2.3446,42.2764,31.51,41,95,7.07,SO,1728833572
152,kalabo,-14.97,22.6814,31.09,20,72,1.73,ZM,1728833574
153,gwadar,25.1216,62.3254,27.71,69,91,2.46,PK,1728833575
154,garcia,25.8167,-100.5833,24.37,51,0,2.13,MX,1728833576
155,tarauaca,-8.1614,-70.7656,37.5,31,51,0.91,BR,1728833578
156,senillosa,-39.0,-68.4167,20.37,22,0,1.43,AR,1728833579
157,kuanda,56.3161,116.0806,-8.74,89,46,1.96,RU,1728833581
158,rio grande,-32.035,-52.0986,22.06,70,83,7.89,BR,1728833582
159,sao joao dos patos,-6.495,-43.7022,39.25,18,14,3.01,BR,1728833583
160,bluefields,12.0137,-83.7635,24.04,94,75,6.17,NI,1728833584
161,lihue,21.9789,-159.3672,22.58,95,69,3.77,US,1728833586
162,ketchikan,55.3422,-131.6461,10.26,87,100,5.14,US,1728833587
163,jamestown,42.097,-79.2353,11.12,100,100,1.54,US,1728833588
164,forster,-32.1667,152.5167,11.32,94,100,5.13,AU,1728833590
165,tazovsky,67.4667,78.7,1.78,88,100,11.4,RU,1728833591
166,luganville,-15.5333,167.1667,24.94,83,100,3.97,VU,1728833593
167,veraval,20.9,70.3667,28.29,82,99,2.2,IN,1728833594
168,naze,28.3667,129.4833,25.51,70,3,5.03,JP,1728833595
169,mount isa,-20.7333,139.5,17.87,88,8,0.0,AU,1728833597
170,yanykurgan,43.915,67.2481,8.78,59,100,5.85,KZ,1728833598
171,helston,50.1032,-5.2705,13.11,76,100,5.14,GB,1728833567
172,miri,4.4148,114.0089,27.08,94,40,2.06,MY,1728833600
173,atafu village,-8.5421,-172.5159,27.67,75,99,4.11,TK,1728833602
174,ubari,26.5921,12.7805,36.68,13,19,5.83,LY,1728833603
175,molochnyy,68.8539,33.0205,3.31,65,0,4.0,RU,1728833605
176,salahonda,2.1019,-78.7217,26.08,83,99,7.71,CO,1728833606
177,mendoza,-32.8908,-68.8272,21.74,43,20,4.12,AR,1728833607
178,labytnangi,66.6572,66.4183,0.55,85,100,5.36,RU,1728833609
179,saipan,15.1355,145.701,27.39,83,40,1.54,MP,1728833610
180,kingston,17.997,-76.7936,32.31,70,20,7.72,JM,1728833611
181,bemidji,47.4736,-94.8803,6.7,83,100,9.77,US,1728833613
182,bredasdorp,-34.5322,20.0403,15.42,87,53,6.8,ZA,1728833614
183,ulladulla,-35.35,150.4667,12.49,73,99,3.37,AU,1728833615
184,sao tome,0.3365,6.7273,27.52,73,78,3.47,ST,1728833617
185,awjilah,29.1081,21.2869,32.71,29,0,5.99,LY,1728833618
186,nkhata bay,-11.6066,34.2907,26.42,56,69,2.08,MW,1728833620
187,west end,26.6833,-78.9667,24.99,77,58,1.96,BS,1728833621
188,shangmei,27.7428,111.2956,19.28,82,99,1.43,CN,1728833622
189,alo,7.4178,6.7371,27.72,79,88,2.55,NG,1728833623
190,lorengau,-2.0226,147.2712,28.23,77,22,4.29,PG,1728833625
191,brisas de zicatela,15.8369,-97.0419,28.29,74,0,1.54,MX,1728833626
192,utrik,11.2278,169.8474,28.01,78,48,5.94,MH,1728833627
193,bechar,31.6167,-2.2167,32.18,18,20,8.75,DZ,1728833629
194,manuguru,17.981,80.7547,25.11,91,45,1.02,IN,1728833630
195,nampula,-15.1165,39.2666,30.97,45,40,5.14,MZ,1728833632
196,tomatlan,19.9333,-105.25,28.01,71,1,1.17,MX,1728833633
197,holalkere,14.0333,76.1833,23.07,84,70,1.28,IN,1728833634
198,talitsa,56.8804,60.0213,-2.7,88,28,1.33,RU,1728833636
199,luderitz,-26.6481,15.1594,22.83,48,5,15.74,NA,1728833637
200,arkalyk,50.2486,66.9114,0.66,47,100,12.52,KZ,1728833406
201,achikulak,44.5517,44.8378,10.6,74,100,7.41,RU,1728833640
202,arraial do cabo,-22.9661,-42.0278,25.98,73,20,5.14,BR,1728833641
203,nova sintra,14.8667,-24.7167,27.77,73,73,3.14,CV,1728833642
204,anadyr,64.75,177.4833,-16.72,85,0,3.0,RU,1728833643
205,datong,40.0936,113.2914,11.09,83,50,2.72,CN,1728833645
206,machilipatnam,16.1667,81.1333,26.72,86,78,3.44,IN,1728833646
207,porto novo,6.4965,2.6036,26.9,73,63,4.07,BJ,1728833648
208,fortuna,40.5982,-124.1573,14.08,95,38,0.94,US,1728833649
209,nuuk,64.1835,-51.7216,3.34,75,75,3.09,GL,1728833410
210,isabela,6.7085,121.9711,26.03,84,55,0.78,PH,1728833652
211,lubao,14.9167,120.55,26.84,84,95,0.91,PH,1728833653
212,abaza,52.655,90.0928,-5.83,98,61,0.73,RU,1728833655
213,chonchi,-42.6128,-73.8092,13.56,73,92,0.24,CL,1728833657
214,ushibukamachi,32.1906,130.0228,21.14,70,5,2.39,JP,1728833658
215,airuk,7.2772,168.8203,28.85,72,87,5.83,MH,1728833659
216,san patricio,28.017,-97.5169,27.73,47,0,3.28,US,1728833661
217,dzhambeyty,50.2536,52.595,3.71,34,0,4.76,KZ,1728833662
218,hobyo,5.3505,48.5268,25.75,84,72,9.86,SO,1728833663
219,neftcala,39.3742,49.2472,18.96,80,100,7.36,AZ,1728833520
220,turtas,58.9417,69.1325,-1.9,75,74,2.53,RU,1728833666
221,port douglas,-16.4833,145.4667,23.28,80,83,3.37,AU,1728833667
222,chandpur,29.15,78.2667,23.93,42,15,0.91,IN,1728833668
223,valdivia,-39.8142,-73.2459,13.05,41,3,0.88,CL,1728833670
224,kholmsk,47.0511,142.0569,7.41,57,80,1.83,RU,1728833671
225,mount gambier,-37.8333,140.7667,9.77,98,17,2.0,AU,1728833672
226,itoman,26.1247,127.6694,27.01,65,20,4.63,JP,1728833674
227,crane,31.3974,-102.3501,27.45,17,0,3.27,US,1728833675
228,isangel,-19.55,169.2667,21.7,79,100,6.02,VU,1728833677
229,la passe,45.5549,-0.8967,24.13,69,28,2.3,FR,1728833678
230,ar ruways,24.1103,52.7306,29.9,57,1,3.83,AE,1728833549
231,zakharivka,47.3333,29.75,12.95,47,30,2.33,UA,1728833680
232,farsan,32.2569,50.561,16.02,22,4,2.77,IR,1728833682
233,mongoumba,3.6415,18.5936,25.18,80,96,1.01,CF,1728833683
234,olonkinbyen,70.9221,-8.7187,-1.48,91,100,9.63,SJ,1728833684
235,tchintabaraden,15.8969,5.7985,37.61,10,24,4.36,NE,1728833686
236,roslavl',53.9528,32.8639,5.88,95,100,5.36,RU,1728833687
237,kailua-kona,19.6406,-155.9956,23.98,64,100,1.54,US,1728833689
238,ivins,37.1686,-113.6794,22.85,22,0,1.78,US,1728833690
239,bontang,0.1333,117.5,27.18,82,100,2.01,ID,1728833691
240,sarupathar,26.1984,93.8094,21.74,96,1,1.02,IN,1728833694
241,nova xavantina,-14.6667,-52.35,39.65,26,99,1.13,BR,1728833695
242,paita,-5.0892,-81.1144,21.69,71,69,5.12,PE,1728833696
243,menongue,-14.6585,17.691,32.51,8,83,0.23,AO,1728833679
244,khor,47.8861,134.9464,5.92,51,67,3.44,RU,1728833699
245,contamana,-7.3333,-75.0167,37.96,32,21,0.59,PE,1728833700
246,barreiras,-12.1528,-44.99,39.71,17,89,2.6,BR,1728833702
247,siwa oasis,29.2041,25.5195,33.97,19,4,3.86,EG,1728833703
248,queenstown,-31.8976,26.8753,28.77,30,5,6.27,ZA,1728833705
249,chegdomyn,51.1167,133.0167,2.86,57,100,0.91,RU,1728833706
250,koson,39.0375,65.585,15.18,58,43,3.49,UZ,1728833707
251,zouerate,22.7187,-12.4521,31.13,31,99,6.36,MR,1728833709
252,madang,-5.2246,145.7966,25.3,91,100,0.46,PG,1728833710
253,fort st. john,56.2499,-120.8529,4.94,70,40,3.6,CA,1728833546
254,jinka,5.65,36.65,21.94,56,78,1.14,ET,1728833713
255,northam,51.0333,-4.2167,11.28,77,100,4.94,GB,1728833578
256,sena madureira,-9.0656,-68.6569,38.15,29,69,1.43,BR,1728833716
257,mili,6.0815,171.735,28.91,70,18,4.23,MH,1728833717
258,fale old settlement,-9.3852,-171.2468,27.29,77,73,4.38,TK,1728833718
259,carutapera,-1.195,-46.02,31.53,53,90,5.59,BR,1728833720
260,santiago,-33.4569,-70.6483,22.7,57,0,2.06,CL,1728833709
261,ola,59.5833,151.2833,1.57,92,100,2.89,RU,1728833722
262,tuy hoa,13.0833,109.3,24.76,95,79,1.09,VN,1728833724
263,waingapu,-9.6567,120.2641,26.5,77,73,2.57,ID,1728833725
264,coahuayana de hidalgo,18.7,-103.6583,28.89,57,5,1.21,MX,1728833726
265,susuman,62.7833,148.1667,-7.76,97,100,0.86,RU,1728833729
266,saeby,57.3319,10.5225,10.96,74,79,3.42,DK,1728833730
267,churapcha,62.0025,132.4325,-3.12,66,100,1.11,RU,1728833731
268,pangai,-19.8,-174.35,24.94,82,60,6.22,TO,1728833734
269,kayes,14.0,-11.0,32.05,51,100,4.09,ML,1728833735
270,london,51.5085,-0.1257,11.28,67,100,1.54,GB,1728833466
271,tiksi,71.6872,128.8694,-10.85,92,100,3.17,RU,1728833738
272,polovinnoye,54.7914,65.9864,-4.36,90,24,1.7,RU,1728833739
273,yuzhno-kurilsk,44.0306,145.8556,10.58,60,2,6.77,RU,1728833741
274,neopolis,-10.32,-36.5794,32.84,40,19,6.74,BR,1728833742
275,praia,14.9215,-23.5087,29.3,74,40,2.57,CV,1728833743
276,konarka,19.9,86.1167,27.22,76,24,3.08,IN,1728833745
277,birao,10.2849,22.7882,27.33,67,79,1.38,CF,1728833746
278,uglegorsk,49.0833,142.0333,7.19,55,1,0.5,RU,1728833749
279,andilamena,-17.0167,48.5833,14.63,92,41,3.68,MG,1728833750
280,porto velho,-8.7619,-63.9039,29.03,58,0,2.57,BR,1728833751
281,greymouth,-42.4667,171.2,4.79,86,100,3.17,NZ,1728833753
282,laibin,23.7,109.2667,27.33,61,98,1.0,CN,1728833754
283,daxi,24.8837,121.2904,27.12,83,99,2.19,TW,1728833755
284,kapa'a,22.0752,-159.319,22.99,95,70,4.0,US,1728833757
285,bardejov,49.2918,21.2727,12.38,83,99,1.77,SK,1728833487
286,nakamura,32.9833,132.9333,19.9,83,52,2.75,JP,1728833759
287,carnarvon,-24.8667,113.6333,19.26,73,0,7.26,AU,1728833761
288,newman,37.3138,-121.0208,18.34,73,0,2.74,US,1728833762
289,progreso,21.2833,-89.6667,29.5,76,97,3.42,MX,1728833763
290,bo phloi,14.3236,99.5161,25.54,89,100,1.34,TH,1728833764
291,kaa-khem,51.6833,94.7333,1.24,67,47,2.28,RU,1728833766
292,alice springs,-23.7,133.8833,24.75,41,100,3.09,AU,1728833767
293,north bay,46.3168,-79.4663,7.01,65,40,4.12,CA,1728833768
294,klyuchi,52.2667,79.1667,-3.45,57,10,2.28,RU,1728833770
295,labuan,5.2767,115.2417,28.2,89,20,1.03,MY,1728833772
296,inverloch,-38.6333,145.7167,15.03,76,100,4.77,AU,1728833774
297,diglur,18.55,77.6,25.81,80,87,2.44,IN,1728833775
298,bykhaw,53.5193,30.2469,8.61,91,100,3.7,BY,1728833776
299,fort bragg,35.139,-79.006,23.58,51,0,4.63,US,1728833778
300,codrington,-38.2667,141.9667,10.34,89,44,0.97,AU,1728833779
301,delta,5.5,6.0,24.42,92,100,1.42,NG,1728833780
302,lido adriano,44.4123,12.3086,21.14,73,100,2.68,IT,1728833782
303,hilo,19.7297,-155.09,22.93,85,100,2.57,US,1728833783
304,aras-asan,8.8908,126.3033,25.66,88,37,0.97,PH,1728833785
305,cabedelo,-6.9811,-34.8339,31.37,62,24,5.81,BR,1728833786
306,as safirah,36.077,37.3725,25.99,50,20,6.37,SY,1728833787
307,bagudo,11.4033,4.2296,32.65,52,58,3.35,NG,1728833789
308,nizhneudinsk,54.9076,99.0276,-6.06,77,48,0.94,RU,1728833790
309,colonia,50.9333,6.95,12.75,70,20,5.66,DE,1728833750
310,tucurui,-3.7661,-49.6725,38.52,28,100,2.42,BR,1728833792
311,zhosaly,45.4878,64.0781,4.39,56,79,3.46,KZ,1728833783
312,al wakrah,24.85,51.3333,33.05,55,0,3.92,QA,1728833795
313,saint-joseph,-21.3667,55.6167,21.21,72,53,6.26,RE,1728833796
314,alesund,62.4723,6.1549,8.2,92,75,6.69,NO,1728833543
315,piacabucu,-10.4056,-36.4344,29.46,56,15,6.8,BR,1728833799
316,gamba,-2.65,10.0,25.33,84,92,3.71,GA,1728833800
317,dilijan,40.741,44.8636,12.55,95,99,1.42,AM,1728833804
318,remire-montjoly,4.9167,-52.2667,32.02,62,40,7.72,GF,1728833806
319,hammerfest,70.6634,23.6821,5.25,60,0,6.17,NO,1728833401
320,yeppoon,-23.1333,150.7333,22.92,69,100,8.68,AU,1728833808
321,makassar,-5.14,119.4221,27.03,78,20,2.57,ID,1728833810
322,lensk,60.7253,114.9278,-7.0,86,100,2.4,RU,1728833811
323,eilat,29.5581,34.9482,33.91,22,4,4.63,IL,1728833666
324,lospalos,-8.5186,127.0025,22.6,88,100,2.15,TL,1728833814
325,kulhudhuffushi,6.6221,73.07,27.5,79,76,6.07,MV,1728833815
326,kentville,45.0835,-64.4988,11.65,68,74,5.66,CA,1728833816
327,qaqortoq,60.7167,-46.0333,5.91,48,45,6.21,GL,1728833819
328,jaen,38.0,-3.5,21.55,42,79,0.39,ES,1728833820
329,fort mcmurray,56.7268,-111.381,3.77,65,100,4.63,CA,1728833821
330,las khorey,11.1595,48.1967,30.06,60,17,1.61,SO,1728833823
331,wanganui,-39.9333,175.05,9.61,95,100,2.12,NZ,1728833824
332,columbia falls,48.3725,-114.1815,15.37,59,12,0.46,US,1728833825
333,ponta delgada,37.7333,-25.6667,23.4,94,75,2.06,PT,1728833827
334,guadalajara de buga,3.9009,-76.2978,25.84,61,40,0.3,CO,1728833828
335,nachingwea,-10.3833,38.7667,27.16,52,74,5.05,TZ,1728833829
336,acarau,-2.8856,-40.12,31.5,51,75,9.89,BR,1728833831
337,parys,48.8534,2.3488,15.7,57,0,1.54,FR,1728833682
338,agat village,13.3886,144.6585,27.52,85,0,3.09,GU,1728833833
339,kavieng,-2.5744,150.7967,27.91,79,16,5.15,PG,1728833835
340,taulaga,-11.0553,-171.0883,27.08,81,94,7.25,AS,1728833836
341,nizhneangarsk,55.7833,109.55,-8.28,68,5,3.36,RU,1728833837
342,buurhakaba,2.8026,44.0781,28.98,48,88,7.73,SO,1728833839
343,tsiombe,-25.3,45.4833,22.41,68,0,6.48,MG,1728833841
344,urengoy,65.9667,78.3667,0.62,99,100,6.48,RU,1728833842
345,flying fish cove,-10.4217,105.6791,25.82,94,100,4.12,CX,1728833843
346,happy valley-goose bay,53.3168,-60.3315,7.17,87,100,6.69,CA,1728833844
347,bafq,31.6128,55.4107,26.62,14,1,2.43,IR,1728833846
348,yulinshi,38.2906,109.7494,14.21,75,0,4.27,CN,1728833847
349,mil'kovo,55.6078,37.7956,6.86,59,100,6.75,RU,1728833848
350,gadzhiyevo,69.2551,33.3362,4.33,67,85,8.32,RU,1728833850
351,tipasa,36.5897,2.4475,30.93,44,96,2.74,DZ,1728833851
352,kourou,5.1552,-52.6478,32.03,47,16,5.05,GF,1728833720
353,la ronge,55.1001,-105.2842,1.14,100,75,1.03,CA,1728833855
354,unai,-16.3575,-46.9061,34.85,33,52,3.15,BR,1728833857
355,baran,25.1,76.5167,25.07,69,22,1.61,IN,1728833858
356,qamdo,31.1667,97.2333,2.8,61,56,1.25,CN,1728833859
357,katsuura,35.1333,140.3,20.18,62,0,7.08,JP,1728833860
358,ocean shores,46.9737,-124.1563,14.45,97,100,2.06,US,1728833862
359,fisterra,42.9049,-9.2629,22.95,84,100,2.35,ES,1728833863
360,canutama,-6.5339,-64.3831,41.23,20,57,1.52,BR,1728833864
361,puerto baquerizo moreno,-0.9,-89.6,21.55,94,75,6.69,EC,1728833866
362,ar rutbah,33.0381,40.2848,28.02,17,4,2.57,IQ,1728833591
363,knoxville,35.9606,-83.9207,22.36,67,0,3.09,US,1728833623
364,hithadhoo,-0.6,73.0833,28.39,73,74,4.67,MV,1728833691
365,praia da vitoria,38.7333,-27.0667,20.14,94,75,5.26,PT,1728833871
366,le port,-20.9373,55.2919,22.0,82,78,1.98,RE,1728833872
367,chabua,27.4825,95.1736,21.31,94,9,0.93,IN,1728833874
368,antonio enes,-16.2325,39.9086,25.64,77,0,3.23,MZ,1728833875
369,charters towers,-20.1,146.2667,18.97,87,69,5.0,AU,1728833876
370,clarksville,36.5298,-87.3595,24.41,58,0,7.2,US,1728833878
371,isla mujeres,21.2311,-86.731,29.03,81,31,2.47,MX,1728833879
372,bucerias,20.75,-105.3333,29.99,74,75,0.0,MX,1728833880
373,hafnarfjordur,64.0671,-21.9377,3.93,35,0,4.12,IS,1728833882
374,vadso,70.0744,29.7487,7.09,81,100,10.8,NO,1728833883
375,guangshui,31.6199,113.9978,16.66,93,100,0.72,CN,1728833885
376,tralee,52.2704,-9.7026,12.14,82,75,5.14,IE,1728833886
377,mejit,10.2753,170.8646,28.27,77,12,6.34,MH,1728833889
378,kidal,18.4411,1.4078,39.23,9,32,6.27,ML,1728833890
379,midvagur,62.0511,-7.1939,3.46,70,70,3.6,FO,1728833891
380,umm kaddadah,13.6017,26.6876,34.52,22,69,1.3,SD,1728833892
381,pemangkat,1.1667,108.9667,27.71,76,100,2.17,ID,1728833894
382,manmad,20.25,74.45,26.0,76,68,2.98,IN,1728833895
383,sibundoy,1.2048,-76.9237,21.81,97,100,2.57,CO,1728833897
384,pitimbu,-7.4706,-34.8086,31.33,64,13,5.35,BR,1728833898
385,celestun,20.8667,-90.4,28.87,62,72,2.8,MX,1728833899
386,faya-largeau,17.9257,19.1043,36.48,9,19,2.98,TD,1728833901
387,prado,-17.3411,-39.2208,28.54,63,56,4.95,BR,1728833902
388,frenda,35.0654,1.0495,30.43,25,51,7.77,DZ,1728833903
389,neryungri,56.6709,124.6491,-5.45,95,100,0.96,RU,1728833747
390,cockburn town,21.4612,-71.1419,29.03,74,89,5.46,TC,1728833906
391,lind,56.1,8.9833,10.9,81,62,1.76,DK,1728833907
392,callao,-12.0667,-77.15,20.16,68,0,3.09,PE,1728833908
393,rabo de peixe,37.8,-25.5833,22.73,94,75,2.06,PT,1728833910
394,tobol,52.6844,62.5794,-2.02,73,5,6.25,KZ,1728833911
395,tolanaro,-25.0319,46.9987,24.04,78,20,9.77,MG,1728833912
396,mirnyy,62.5353,113.9611,-12.18,91,46,2.04,RU,1728833704
397,bardai,11.65,7.2333,31.48,44,95,1.79,NG,1728833915
398,wenzhou,27.9994,120.6668,22.15,87,5,1.2,CN,1728833916
399,yarmouth,41.7057,-70.2286,12.79,77,100,2.06,US,1728833918
400,gemena,3.25,19.7667,24.34,85,97,1.04,CD,1728833919
401,zheleznodorozhnyy,55.7503,38.0042,6.87,37,100,6.1,RU,1728833920
402,hamilton,39.1834,-84.5333,23.84,64,0,7.2,US,1728833922
403,rreshen,41.7675,19.8756,20.6,78,63,0.67,AL,1728833923
404,monastir,35.7833,10.8333,29.99,58,0,5.66,TN,1728833159
405,poso,-1.3959,120.7524,25.34,90,100,1.07,ID,1728833926
406,morehead city,34.7229,-76.726,24.47,58,0,3.09,US,1728833927
407,mendi,-6.1761,143.6513,14.24,99,100,0.27,PG,1728833928
408,adrar,20.5022,-10.0711,34.51,22,100,5.56,MR,1728833930
409,atherton,53.5237,-2.4935,10.5,67,100,0.45,GB,1728833931
410,afaahiti,-17.75,-149.2833,21.93,79,99,7.32,PF,1728833932
411,constitucion,-35.3333,-72.4167,17.07,51,2,4.35,CL,1728833934
412,gundlupet,11.8,76.6833,21.18,91,100,1.89,IN,1728833935
413,muroto-misakicho,33.2833,134.15,23.18,71,67,7.05,JP,1728833936
414,pisco,-13.7,-76.2167,20.03,73,0,3.6,PE,1728833939
415,marka,1.7159,44.7717,25.58,86,71,5.78,SO,1728833941
416,micheweni,-4.9667,39.8333,25.13,83,28,4.17,TZ,1728833942
417,nema,57.5067,50.5011,-0.54,65,4,2.75,RU,1728833943
418,taber,49.8167,-112.1518,5.0,60,11,5.66,CA,1728833945
419,woodlake,37.4211,-77.6793,23.17,66,0,0.45,US,1728833946
420,kapsabet,0.2039,35.105,17.75,82,86,1.44,KE,1728833947
421,papao,-17.75,-149.55,22.82,80,97,6.59,PF,1728833948
422,shingu,33.7333,135.9833,20.11,79,60,2.84,JP,1728833950
423,carbonear,47.7332,-53.2148,13.01,66,54,10.89,CA,1728833951
424,monticello,45.3055,-93.7941,10.48,62,100,10.8,US,1728833953
425,sanctuary point,-35.1114,150.629,14.86,82,100,3.2,AU,1728833954
426,tanumah,27.1,44.1333,29.66,11,0,3.54,SA,1728833955
427,jutai,-5.1833,-68.9,38.94,28,9,1.2,BR,1728833957
428,pikeville,37.4793,-82.5188,23.77,53,0,0.0,US,1728833958
429,mandan,46.8267,-100.8896,6.56,78,0,5.66,US,1728833959
430,souillac,-20.5167,57.5167,23.21,68,75,7.72,MU,1728833961
431,korsakov,46.6328,142.7813,-1.09,65,77,2.6,RU,1728833962
432,ebolowa,2.9,11.15,20.17,99,100,0.94,CM,1728833963
433,horsham,51.064,-0.3272,10.84,71,0,1.54,GB,1728833795
434,nar'yan-mar,67.6713,53.087,1.93,92,14,5.95,RU,1728833966
435,kankaanpaa,61.8,22.4167,7.42,94,100,2.26,FI,1728833719
436,kirakira,-10.4544,161.9205,25.8,86,37,3.36,SB,1728833969
437,sandnessjoen,66.0217,12.6316,10.06,57,75,4.63,NO,1728833970
438,colon,9.3592,-79.9014,27.86,83,100,3.13,PA,1728833973
439,opuwo,-18.0607,13.84,34.48,7,7,5.93,NA,1728833975
440,pangody,65.85,74.4859,1.08,97,100,6.59,RU,1728833928
441,huadian,42.9633,126.7478,14.34,61,100,1.36,CN,1728833732
442,al ghayzah,16.2079,52.176,28.56,63,95,3.77,YE,1728833979
443,mumbwa,-14.9783,27.0619,28.87,26,96,2.21,ZM,1728833981
444,lokhvytsya,50.3678,33.2602,8.91,91,100,2.39,UA,1728833982
445,new norfolk,-42.7826,147.0587,8.17,99,100,1.18,AU,1728833983
446,kudat,6.8837,116.8477,28.96,84,68,1.54,MY,1728833985
447,altai,46.3722,96.2583,0.42,68,0,1.23,MN,1728833859
448,timbuktu,16.7735,-3.0074,40.82,11,11,4.6,ML,1728833987
449,kill devil hills,36.0307,-75.676,24.0,53,0,4.63,US,1728833989
450,loyew,51.9458,30.7953,9.04,94,99,2.55,BY,1728833990
451,sanchursk,56.9413,47.2499,1.97,53,42,3.68,RU,1728833991
452,vorkuta,67.5,64.0,-0.33,93,93,5.41,RU,1728833993
453,smara,26.7384,-11.6719,29.39,38,71,5.14,EH,1728833994
454,novaya ladoga,60.1025,32.3019,7.18,92,100,6.13,RU,1728833996
455,san luis de la loma,17.2706,-100.8939,27.65,70,92,0.53,MX,1728833997
456,manokwari,-0.8667,134.0833,26.53,80,100,1.2,ID,1728833998
457,la'ie,21.6477,-157.9253,24.5,80,83,1.79,US,1728834000
458,sinabang,2.4803,96.3801,24.47,88,100,0.91,ID,1728834001
459,rongelap,11.1635,166.8941,28.21,77,49,6.39,MH,1728834002
460,hassi messaoud,31.6804,6.0729,33.92,27,0,4.12,DZ,1728834004
461,mozarlandia,-14.7447,-50.5706,39.17,24,69,2.18,BR,1728834005
462,black point,-34.6187,137.8972,16.49,68,54,3.76,AU,1728834007
463,thunder bay,48.4001,-89.3168,6.95,81,100,6.17,CA,1728833835
464,mazatlan,23.2167,-106.4167,29.95,81,0,0.89,MX,1728834009
465,bengkulu,-3.8004,102.2655,24.92,91,100,0.74,ID,1728834011
466,mazara del vallo,37.6641,12.588,25.3,89,52,1.96,IT,1728833916
467,yerofey pavlovich,53.9667,121.9667,-0.95,69,100,1.5,RU,1728834013
468,ebon,4.582,168.6964,29.25,68,90,6.43,MH,1728834014
469,lazaro cardenas,17.9583,-102.2,27.56,69,49,1.63,MX,1728834016
470,acapulco de juarez,16.8634,-99.8901,26.9,78,100,2.57,MX,1728834017
471,freetown,8.484,-13.2299,29.84,66,75,4.63,SL,1728834019
472,ierapetra,35.01,25.7353,24.07,69,0,4.53,GR,1728833607
473,dzerzhinskoye,56.8344,95.2283,-3.4,56,100,1.58,RU,1728834021
474,timmins,48.4669,-81.3331,3.9,75,20,2.57,CA,1728834024
475,miandrivazo,-19.5167,45.4667,29.7,44,77,6.2,MG,1728834026
476,trinidad,-14.8333,-64.9,37.99,41,25,4.12,BO,1728834028
477,coari,-4.085,-63.1414,38.63,26,94,1.39,BR,1728834029
478,holualoa,19.6228,-155.9522,21.91,64,100,1.54,US,1728834030
479,kayangel,8.0823,134.7173,28.86,71,35,4.06,PW,1728834032
480,south bay,26.664,-80.7162,28.9,75,84,3.47,US,1728834035
481,al ain city,24.1917,55.7606,32.79,35,0,5.14,AE,1728834036
482,emerald,-23.5333,148.1667,19.08,75,100,6.77,AU,1728834037
483,jonava,55.0833,24.2833,9.03,76,100,3.6,LT,1728834039
484,kalmunai,7.4167,81.8167,24.72,90,100,1.63,LK,1728834040
485,tuxpan,19.55,-103.4,20.3,70,4,1.92,MX,1728834041
486,valley city,46.9233,-98.0032,6.29,87,40,7.72,US,1728834043
487,taltal,-25.4,-70.4833,19.08,67,25,3.44,CL,1728834044
488,great falls,47.5002,-111.3008,5.66,81,0,0.0,US,1728834045
489,puerto aysen,-45.4,-72.7,9.0,98,100,1.75,CL,1728834047
490,shahr-e babak,30.1165,55.1186,21.29,18,1,1.26,IR,1728834048
491,saint-pierre,-21.3393,55.4781,22.27,68,20,8.75,RE,1728834050
492,port macquarie,-31.4333,152.9167,15.6,77,100,1.34,AU,1728834051
493,lesnoy,57.6198,63.0784,-1.62,75,34,2.28,RU,1728834052
494,polyarnyy,69.1989,33.4478,4.44,66,78,8.83,RU,1728834054
495,iwon-up,40.3231,128.6553,16.29,72,100,1.97,KP,1728834055
496,sampao,7.5939,125.6611,23.67,98,56,1.03,PH,1728834056
497,tughyl,47.7252,84.2063,4.07,78,100,1.2,KZ,1728834058
498,fangshan,39.6983,115.9925,16.92,70,81,0.96,CN,1728834059
499,arsk,56.0915,49.8778,1.26,45,5,3.21,RU,1728834060
500,hasaki,35.7333,140.8333,16.22,59,0,6.64,JP,1728834063
501,skikda,36.8762,6.9092,26.1,62,100,1.8,DZ,1728834065
502,zhanaozen,43.3,52.8,8.81,32,0,6.78,KZ,1728834066
503,asino,56.9979,86.1452,-3.74,60,88,1.91,RU,1728834067
504,merizo village,13.2658,144.6691,27.31,79,45,3.26,GU,1728834069
505,kyshtovka,56.555,76.6271,-3.12,64,16,1.81,RU,1728834070
506,damavand,35.7178,52.065,15.59,40,55,1.24,IR,1728834071
507,al 'amarah,31.8406,47.1396,33.15,18,0,0.41,IQ,1728834029
508,lubango,-14.9172,13.4925,25.57,31,46,5.83,AO,1728834074
509,loen,7.7601,168.2307,28.88,73,60,5.93,MH,1728834076
510,labasa,-16.4167,179.3833,23.73,89,99,1.93,FJ,1728834077
511,natal,-5.795,-35.2094,30.36,69,75,7.72,BR,1728834078
512,draganesti,45.7833,27.4667,15.85,60,97,3.22,RO,1728834080
513,gatchina,59.5764,30.1283,6.71,98,100,1.1,RU,1728834081
514,isna,25.2934,32.554,33.8,17,0,4.14,EG,1728834082
515,chelm,51.1431,23.4716,7.72,85,91,9.9,PL,1728834036
516,diego de almagro,-26.3667,-70.05,27.84,15,5,3.68,CL,1728834085
517,kouvola,60.8667,26.7,7.18,88,0,2.57,FI,1728834086
518,yibin,28.7667,104.6238,18.77,89,90,0.25,CN,1728834088
519,khmelnytskyi,49.4216,26.9965,10.25,69,63,3.55,UA,1728833916
520,nemuro,43.3236,145.575,11.21,63,0,5.26,JP,1728834092
521,fairfield,41.2668,-73.3162,17.03,68,40,7.2,US,1728834093
522,queimadas,-10.9783,-39.6264,36.44,21,12,4.24,BR,1728834094
523,east ballina,-28.8667,153.5833,12.67,66,100,1.47,AU,1728834095
524,lapeer,43.0514,-83.3188,12.07,90,100,4.3,US,1728834097
525,gorodishche,48.8045,44.4744,5.49,42,0,9.0,RU,1728834098
526,muntok,-2.0667,105.1833,25.2,88,97,2.78,ID,1728834099
527,hotan,37.0997,79.9269,19.77,16,0,1.53,CN,1728834007
528,usakos,-22.0,15.6,31.14,23,87,12.18,NA,1728834102
529,la roda,39.2167,-2.15,23.85,43,100,5.94,ES,1728834104
530,el campello,38.4288,-0.3977,27.32,70,63,1.79,ES,1728834105
531,kiunga,-6.1219,141.2906,22.94,99,100,0.98,PG,1728834106
532,sao miguel do araguaia,-13.275,-50.1628,37.89,25,98,3.61,BR,1728834108
533,timimoun,29.2639,0.231,39.21,11,0,1.03,DZ,1728833841
534,illizi,26.4833,8.4667,40.89,10,46,3.87,DZ,1728834110
535,baiti,13.745,-14.7482,31.07,63,100,3.61,SN,1728834112
536,valera,9.3178,-70.6036,32.01,50,100,2.62,VE,1728834113
537,dawson creek,55.7666,-120.2362,6.8,61,0,5.14,CA,1728834116
538,tommot,58.9564,126.2925,-2.14,94,100,0.51,RU,1728834117
539,stephenville,32.2207,-98.2023,28.43,31,0,4.63,US,1728834120
540,mahibadhoo,3.7833,72.9667,27.51,80,10,6.15,MV,1728833917
541,mawlaik,23.6333,94.4167,22.63,98,36,0.39,MM,1728834123
542,mudon,16.2578,97.7164,27.03,85,88,0.24,MM,1728834124
543,tandil,-37.3217,-59.1332,23.71,28,22,4.95,AR,1728834125
544,tynda,55.1667,124.7167,-3.31,97,100,1.3,RU,1728834126
545,island harbour,50.724,-1.2758,12.18,66,100,3.58,GB,1728834128
546,benguela,-12.5763,13.4055,25.14,74,19,3.57,AO,1728834129
547,atamyrat,37.8357,65.2106,18.58,39,96,5.33,TM,1728834131
548,huilong,31.8111,121.655,22.13,82,92,4.36,CN,1728834132
549,gisborne,-38.6533,178.0042,10.98,82,100,1.4,NZ,1728834133
550,novyy urgal,51.0736,132.5642,0.69,58,100,0.57,RU,1728834135
551,batticaloa,7.7102,81.6924,25.15,86,100,1.76,LK,1728834009
552,sokoni,-6.4333,39.55,27.92,82,6,5.05,TZ,1728834137
553,bungu,-7.6337,39.0582,23.99,77,25,4.1,TZ,1728834139
554,kindu,-2.95,25.95,27.28,59,89,1.5,CD,1728834140
555,kiratu,-3.3333,35.6667,22.94,34,78,4.78,TZ,1728834141
556,nadym,65.5333,72.5167,1.15,89,100,6.34,RU,1728834143
557,tambacounda,13.7539,-13.7586,33.03,70,20,4.12,SN,1728834144
558,ambon,-3.6954,128.1814,28.82,95,92,1.64,ID,1728834145
559,borkum,53.5809,6.6915,12.74,59,100,13.78,DE,1728834043
560,anatuya,-28.4606,-62.8347,28.55,39,90,4.72,AR,1728834148
561,caleta de carquin,-11.0925,-77.6267,20.6,72,52,4.62,PE,1728834151
562,quirinopolis,-18.4483,-50.4517,34.6,34,94,2.74,BR,1728834152
563,bidur,4.1167,101.2833,24.49,94,100,1.29,MY,1728834153
564,brookings,44.3114,-96.7984,9.14,69,75,9.26,US,1728834155
565,isiolo,0.3546,37.5822,26.49,35,81,8.23,KE,1728834156
566,geraldton,-28.7667,114.6,18.23,63,100,4.63,AU,1728834157
567,necochea,-38.5473,-58.7368,21.95,28,61,1.66,AR,1728834159
568,qui nhon,13.7667,109.2333,24.99,92,57,3.25,VN,1728834160
569,muhos,64.808,25.9931,6.05,94,100,2.95,FI,1728834161
570,ataq,14.5377,46.8319,26.87,36,20,3.19,YE,1728834163
571,verdal,63.7933,11.4817,10.02,77,97,2.19,NO,1728834164
572,corowa,-36.0333,146.3833,13.01,59,100,2.75,AU,1728834165
573,mishelevka,52.8575,103.1719,-4.85,68,9,2.07,RU,1728834166
574,yurgamysh,55.3714,64.4656,-2.73,81,55,1.39,RU,1728834168
575,pacific grove,36.6177,-121.9166,17.99,93,0,2.68,US,1728834169
576,mao,39.8885,4.2658,23.31,83,20,4.12,ES,1728834170
577,bhinmal,25.0,72.25,27.12,64,53,3.94,IN,1728834172
578,dalandzadgad,43.5708,104.425,9.24,53,6,9.24,MN,1728834015
579,madalena,41.2162,-8.3345,24.86,65,16,2.78,PT,1728834174
580,auki,-8.7676,160.7034,24.4,89,10,1.61,SB,1728834176
581,aykhal,66.0,111.5,-18.37,100,95,2.98,RU,1728834177
582,newnham,-41.3833,147.1333,11.53,87,100,4.12,AU,1728834178
583,mary,37.0,62.5,18.81,39,69,4.48,TM,1728834180
584,arno,60.1167,18.6333,10.99,84,100,3.55,SE,1728834181
585,oulainen,64.2667,24.8,4.89,97,100,2.38,FI,1728834182
586,al hazm,16.1641,44.7769,29.36,18,14,4.3,YE,1728834184
587,ouargla,31.9493,5.325,34.04,24,0,6.17,DZ,1728834021
588,kone,-21.0595,164.8658,19.12,81,93,1.78,NC,1728834188
